iso3: npl
codab:
  hdx_dataset_name: npl_admbnda_nd_20201117_SHP.zip
  layer_base_name: npl_admbnda_adm{admin_level}_nd_20201117.shp
  admin_level_max: 2
  custom_layer_names:
    - npl_admbnda_districts_nd_20201117
glofas:
  reporting_points:
  - id: G0915
    name: Chisapani
    lon: 81.25
    lat: 28.65
  - id: G3955
    name: Bimalnagar
    lon: 84.45
    lat: 28.05
  - id: G3980
    name: Jomsom
    lon: 83.65
    lat: 28.75
  - id: G4012
    name: Majhitar
    lon: 87.65
    lat: 27.25
  - id: G4073
    name: Pachuwarghat
    lon: 85.75
    lat: 27.55
  - id: G4159
    name: Darchula
    lon: 80.45
    lat: 29.75
  - id: G4367
    name: Turkighat
    lon: 87.15
    lat: 27.35
  - id: G4385
    name: Asaraghat
    lon: 81.45
    lat: 28.95
  - id: G4393
    name: Samajhighat
    lon: 81.65
    lat: 28.55
  - id: G4399
    name: Rai Goan
    lon: 85.45
    lat: 27.25
  - id: G4403
    name: Kampughat
    lon: 86.85
    lat: 26.85
  - id: G4416
    name: Chepang
    lon: 81.75
    lat: 28.35
  - id: G4425
    name: Majhitar
    lon: 87.45
    lat: 26.95
  - id: G4449
    name: Devghat
    lon: 84.45
    lat: 27.75
  - id: G4456
    name: Kusum
    lon: 82.15
    lat: 27.95
  - id: G4469
    name: Dipayal
    lon: 80.95
    lat: 29.25
  - id: G4475
    name: Chatara
    lon: 87.15
    lat: 26.85
  - id: G4482
    name: After Lothar Confluence
    lon: 84.65
    lat: 27.55
  - id: G4502
    name: Betrawati
    lon: 85.15
    lat: 28.05
  - id: G4510
    name: Khurkot
    lon: 86.05
    lat: 27.25
  - id: G4514
    name: Rabuwabazar
    lon: 86.65
    lat: 27.25
  - id: G4541
    name: Angsing
    lon: 83.75
    lat: 27.85
  - id: G4550
    name: Shisaghat
    lon: 84.25
    lat: 28.15
  - id: G4569
    name: Mainachuli
    lon: 87.85
    lat: 26.65
  - id: G4578
    name: Arughat
    lon: 84.85
    lat: 28.05
  - id: G4619
    name: Simle
    lon: 87.15
    lat: 27.05
  - id: G4674
    name: Butwal
    lon: 83.45
    lat: 27.75
